[
    {
        "name": "健康増進センタ－",
        "info": "",
        "address": "島根県浜田市松原町277-6",
        "tel": "0855-23-0273",
        "location": {
            "latitude": 34.9028622,
            "longitude": 132.0790646
        },
        "url": ""
    },
    {
        "name": "浜田公民館",
        "info": "駐車場は市役所兼用",
        "address": "島根県浜田市殿町6-1",
        "tel": "0855-22-9358",
        "location": {
            "latitude": 34.8992273,
            "longitude": 132.0789139
        },
        "url": ""
    },
    {
        "name": "原井小学校",
        "info": "",
        "address": "島根県浜田市港町208",
        "tel": "0855-22-0863",
        "location": {
            "latitude": 34.89915209999999,
            "longitude": 132.0704712
        },
        "url": ""
    },
    {
        "name": "原井幼稚園",
        "info": "",
        "address": "島根県浜田市高田町65-6",
        "tel": "0855-22-0076",
        "location": {
            "latitude": 34.8965814,
            "longitude": 132.0735804
        },
        "url": ""
    },
    {
        "name": "浜田水産高等学校体育館",
        "info": "自販機、公衆電話あり。足が悪い方は柔道場もOK。",
        "address": "島根県浜田市瀬戸ヶ島町25-3",
        "tel": "0855-22-3098",
        "location": {
            "latitude": 34.9029644,
            "longitude": 132.0640909
        },
        "url": ""
    },
    {
        "name": "浜田教育センター",
        "info": "避難所看板なし",
        "address": "島根県浜田市長沢町1550-1",
        "tel": "―",
        "location": {
            "latitude": 34.9157422,
            "longitude": 132.1043373
        },
        "url": ""
    },
    {
        "name": "松原小学校",
        "info": "",
        "address": "島根県浜田市浅井町1415-2",
        "tel": "0855-22-0262",
        "location": {
            "latitude": 34.9076213,
            "longitude": 132.0835126
        },
        "url": ""
    },
    {
        "name": "浜田高等学校体育館",
        "info": "",
        "address": "島根県浜田市黒川町3749",
        "tel": "0855-22-0042",
        "location": {
            "latitude": 34.8999755,
            "longitude": 132.0984201
        },
        "url": ""
    },
    {
        "name": "第一中学校",
        "info": "",
        "address": "島根県浜田市黒川町3745",
        "tel": "0855-22-0904",
        "location": {
            "latitude": 34.90131179999999,
            "longitude": 132.096302
        },
        "url": ""
    },
    {
        "name": "石見小学校",
        "info": "",
        "address": "島根県浜田市黒川町3738-4",
        "tel": "0855-22-0512",
        "location": {
            "latitude": 34.9027883,
            "longitude": 132.0968429
        },
        "url": ""
    },
    {
        "name": "石見公民館",
        "info": "",
        "address": "島根県浜田市黒川町132-2",
        "tel": "0855-22-1380",
        "location": {
            "latitude": 34.9006048,
            "longitude": 132.093443
        },
        "url": ""
    },
    {
        "name": "島根県立体育館",
        "info": "",
        "address": "島根県浜田市黒川町3735",
        "tel": "0855-23-1201",
        "location": {
            "latitude": 34.9029942,
            "longitude": 132.0936748
        },
        "url": ""
    },
    {
        "name": "島根県立石見武道館",
        "info": "駐車場は兼用",
        "address": "島根県浜田市黒川町３７３５",
        "tel": "0855-23-7170",
        "location": {
            "latitude": 34.9029942,
            "longitude": 132.0936748
        },
        "url": ""
    },
    {
        "name": "三階小学校",
        "info": "",
        "address": "島根県浜田市竹迫町2396-2",
        "tel": "0855-23-2400",
        "location": {
            "latitude": 34.893585,
            "longitude": 132.0870291
        },
        "url": ""
    },
    {
        "name": "公立大学法人島根県立大学体育館",
        "info": "",
        "address": "島根県浜田市野原町2433-2",
        "tel": "0855-24-2200",
        "location": {
            "latitude": 34.884532,
            "longitude": 132.0761728
        },
        "url": ""
    },
    {
        "name": "第二中学校",
        "info": "",
        "address": "島根県浜田市原井町963-15",
        "tel": "0855-22-1268",
        "location": {
            "latitude": 34.8856012,
            "longitude": 132.064922
        },
        "url": ""
    },
    {
        "name": "雲雀丘小学校",
        "info": "",
        "address": "島根県浜田市原井町1045",
        "tel": "0855-22-1141",
        "location": {
            "latitude": 34.8863134,
            "longitude": 132.0659271
        },
        "url": ""
    },
    {
        "name": "石見公民館　細谷分館",
        "info": "",
        "address": "島根県浜田市三階町2130-1",
        "tel": "0855-22-7531",
        "location": {
            "latitude": 34.8692567,
            "longitude": 132.093018
        },
        "url": ""
    },
    {
        "name": "石見公民館　長見分館",
        "info": "",
        "address": "島根県浜田市長見町956-2",
        "tel": "0855-22-5323",
        "location": {
            "latitude": 34.8405657,
            "longitude": 132.1086434
        },
        "url": ""
    },
    {
        "name": "石見公民館　後野分館",
        "info": "旧小学校なので老朽化している。",
        "address": "島根県浜田市後野町779-2",
        "tel": "0855-23-2419",
        "location": {
            "latitude": 34.893792,
            "longitude": 132.1325423
        },
        "url": ""
    },
    {
        "name": "石見公民館　佐野分館",
        "info": "",
        "address": "島根県浜田市佐野町イ337-1",
        "tel": "0855-42-0689",
        "location": {
            "latitude": 34.886269,
            "longitude": 132.161552
        },
        "url": ""
    },
    {
        "name": "石見公民館　宇津井分館",
        "info": "",
        "address": "島根県浜田市宇津井町563",
        "tel": "0855-42-1309",
        "location": {
            "latitude": 34.9072411,
            "longitude": 132.1705108
        },
        "url": ""
    },
    {
        "name": "長浜幼稚園",
        "info": "",
        "address": "島根県浜田市熱田町820-1",
        "tel": "0855-27-0575",
        "location": {
            "latitude": 34.8710153,
            "longitude": 132.055025
        },
        "url": ""
    },
    {
        "name": "浜田商業高等学校体育館",
        "info": "",
        "address": "島根県浜田市熱田町675",
        "tel": "0855-27-0064",
        "location": {
            "latitude": 34.8688418,
            "longitude": 132.0595504
        },
        "url": ""
    },
    {
        "name": "長浜公民館（マリン交流センター）",
        "info": "",
        "address": "島根県浜田市熱田町1441-18",
        "tel": "0855-27-4614",
        "location": {
            "latitude": 34.8695544,
            "longitude": 132.0510811
        },
        "url": ""
    },
    {
        "name": "長浜小学校",
        "info": "近くに海がある。近くに駅、病院がある。",
        "address": "島根県浜田市長浜町1-",
        "tel": "0855-27-0221",
        "location": {
            "latitude": 34.8700203,
            "longitude": 132.0481867
        },
        "url": ""
    },
    {
        "name": "周布小学校",
        "info": "",
        "address": "島根県浜田市周布町イ63-3",
        "tel": "0855-27-1006",
        "location": {
            "latitude": 34.8646333,
            "longitude": 132.0238661
        },
        "url": ""
    },
    {
        "name": "周布公民館",
        "info": "雨漏りあり。",
        "address": "島根県浜田市周布町イ374",
        "tel": "0855-27-0058",
        "location": {
            "latitude": 34.8609891,
            "longitude": 132.0205258
        },
        "url": ""
    },
    {
        "name": "第三中学校",
        "info": "海が近い。浴室は保健室につける予定。",
        "address": "島根県浜田市日脚町572",
        "tel": "0855-27-1150",
        "location": {
            "latitude": 34.8740403,
            "longitude": 132.0302328
        },
        "url": ""
    },
    {
        "name": "大麻公民館",
        "info": "",
        "address": "島根県浜田市西村町1038-8",
        "tel": "0855-27-0897",
        "location": {
            "latitude": 34.8262671,
            "longitude": 131.9859601
        },
        "url": ""
    },
    {
        "name": "美川公民館　東分館",
        "info": "H23講堂倒壊、公民館は老朽化が進んでいる。避難所までの道程が狭く細い為来れない場合がある。",
        "address": "島根県浜田市鍋石町530-3",
        "tel": "0855-27-3828",
        "location": {
            "latitude": 34.8156241,
            "longitude": 132.0664777
        },
        "url": ""
    },
    {
        "name": "美川公民館　西分館",
        "info": "体育館と併設",
        "address": "島根県浜田市田橋町494-2",
        "tel": "0855-27-3503",
        "location": {
            "latitude": 34.8326141,
            "longitude": 132.0559143
        },
        "url": ""
    },
    {
        "name": "美川公民館",
        "info": "",
        "address": "島根県浜田市内村町592-1",
        "tel": "0855-27-3657",
        "location": {
            "latitude": 34.8535194,
            "longitude": 132.0555567
        },
        "url": ""
    },
    {
        "name": "第四中学校",
        "info": "フェンスあり",
        "address": "島根県浜田市内田町1050-",
        "tel": "0855-27-0813",
        "location": {
            "latitude": 34.8558111,
            "longitude": 132.0526278
        },
        "url": ""
    },
    {
        "name": "美川小学校",
        "info": "",
        "address": "島根県浜田市内田町1020-",
        "tel": "0855-27-0802",
        "location": {
            "latitude": 34.8555162,
            "longitude": 132.0525125
        },
        "url": ""
    },
    {
        "name": "美川幼稚園",
        "info": "",
        "address": "島根県浜田市内田町1117-2",
        "tel": "0855-26-0185",
        "location": {
            "latitude": 34.8548505,
            "longitude": 132.0506945
        },
        "url": ""
    },
    {
        "name": "国府公民館",
        "info": "",
        "address": "島根県浜田市国分町1981-136",
        "tel": "0855-28-1270",
        "location": {
            "latitude": 34.9362564,
            "longitude": 132.1098399
        },
        "url": ""
    },
    {
        "name": "国府小学校",
        "info": "",
        "address": "島根県浜田市下府町2164-81",
        "tel": "0855-28-0028",
        "location": {
            "latitude": 34.935443,
            "longitude": 132.1083931
        },
        "url": ""
    },
    {
        "name": "浜田養護学校",
        "info": "",
        "address": "島根県浜田市国分町342-2",
        "tel": "0855-28-2200",
        "location": {
            "latitude": 34.9410799,
            "longitude": 132.1156155
        },
        "url": ""
    },
    {
        "name": "浜田ろう学校",
        "info": "",
        "address": "島根県浜田市国分町342-2",
        "tel": "0855-28-0146",
        "location": {
            "latitude": 34.9410799,
            "longitude": 132.1156155
        },
        "url": ""
    },
    {
        "name": "浜田東中学校",
        "info": "近くにヘリポート、防災センターあり。",
        "address": "島根県浜田市下府町699",
        "tel": "0855-28-3210",
        "location": {
            "latitude": 34.92471099999999,
            "longitude": 132.1142638
        },
        "url": ""
    },
    {
        "name": "国分公民館　宇野分館",
        "info": "",
        "address": "島根県浜田市宇野町281-3",
        "tel": "0855-28-2646",
        "location": {
            "latitude": 34.9233803,
            "longitude": 132.153805
        },
        "url": ""
    },
    {
        "name": "旧有福小学校",
        "info": "",
        "address": "島根県浜田市下有福町436",
        "tel": "0855-28-2606",
        "location": {
            "latitude": 34.94565610000001,
            "longitude": 132.1851581
        },
        "url": ""
    },
    {
        "name": "国府公民館　有福分館",
        "info": "",
        "address": "島根県浜田市下有福町436",
        "tel": "0855-28-2841",
        "location": {
            "latitude": 34.94565610000001,
            "longitude": 132.1851581
        },
        "url": ""
    },
    {
        "name": "久佐公民館（くざ会館）",
        "info": "久佐小学校に隣接",
        "address": "島根県浜田市金城町久佐イ575-7",
        "tel": "0855-42-2666",
        "location": {
            "latitude": 34.8601824,
            "longitude": 132.2080066
        },
        "url": ""
    },
    {
        "name": "今福小学校",
        "info": "",
        "address": "島根県浜田市金城町今福1425-5",
        "tel": "0855-42-0304",
        "location": {
            "latitude": 34.8799074,
            "longitude": 132.1943574
        },
        "url": ""
    },
    {
        "name": "今福公民館（ふれあい会館）",
        "info": "",
        "address": "島根県浜田市金城町今福105-2",
        "tel": "0855-42-2083",
        "location": {
            "latitude": 34.8789907,
            "longitude": 132.1941596
        },
        "url": ""
    },
    {
        "name": "美又公民館（美又会館）",
        "info": "美又小学校に隣接",
        "address": "島根県浜田市金城町追原176",
        "tel": "0855-42-1704",
        "location": {
            "latitude": 34.9038613,
            "longitude": 132.2296233
        },
        "url": ""
    },
    {
        "name": "雲城公民館（山村開発センター（みどりかいかん））",
        "info": "",
        "address": "島根県浜田市金城町下来原171",
        "tel": "0855-42-2076",
        "location": {
            "latitude": 34.85980920000001,
            "longitude": 132.1603903
        },
        "url": ""
    },
    {
        "name": "雲城小学校",
        "info": "",
        "address": "島根県浜田市金城町下来原154-5",
        "tel": "0855-42-0006",
        "location": {
            "latitude": 34.8678985,
            "longitude": 132.181962
        },
        "url": ""
    },
    {
        "name": "金城中学校",
        "info": "",
        "address": "島根県浜田市金城町下来原1402-6",
        "tel": "0855-42-0044",
        "location": {
            "latitude": 34.8622881,
            "longitude": 132.1671629
        },
        "url": ""
    },
    {
        "name": "金城総合体育館（ふれあいジム・かなぎ）",
        "info": "大型車駐車場14台",
        "address": "島根県浜田市金城町七条イ982",
        "tel": "0855-42-1238",
        "location": {
            "latitude": 34.8656835,
            "longitude": 132.1660064
        },
        "url": ""
    },
    {
        "name": "波佐公民館（ときわ会館）",
        "info": "",
        "address": "島根県浜田市金城町波佐イ441-1",
        "tel": "0855-44-0146",
        "location": {
            "latitude": 34.7778907,
            "longitude": 132.197752
        },
        "url": ""
    },
    {
        "name": "波佐小学校",
        "info": "",
        "address": "島根県浜田市金城町波佐イ558-2",
        "tel": "0855-44-0028",
        "location": {
            "latitude": 34.779843,
            "longitude": 132.196549
        },
        "url": ""
    },
    {
        "name": "小国公民館（旧小国小学校）",
        "info": "",
        "address": "島根県浜田市金城町小国イ160-1",
        "tel": "0855-44-0254",
        "location": {
            "latitude": 34.8165241,
            "longitude": 132.1988229
        },
        "url": ""
    },
    {
        "name": "旭山村開発センター（旭センター）",
        "info": "",
        "address": "島根県浜田市旭町今市633-1",
        "tel": "0855-45-0155",
        "location": {
            "latitude": 34.8594649,
            "longitude": 132.2596306
        },
        "url": ""
    },
    {
        "name": "旭中学校（体育館）",
        "info": "",
        "address": "島根県浜田市旭町今市1354",
        "tel": "0855-45-0076",
        "location": {
            "latitude": 34.85842300000001,
            "longitude": 132.2533426
        },
        "url": ""
    },
    {
        "name": "旭小学校",
        "info": "",
        "address": "島根県浜田市旭町丸原1517-4",
        "tel": "0855-45-0014",
        "location": {
            "latitude": 34.8671286,
            "longitude": 132.2589175
        },
        "url": ""
    },
    {
        "name": "木田小学校（体育館）",
        "info": "",
        "address": "島根県浜田市旭町木田488",
        "tel": "―",
        "location": {
            "latitude": 34.8896713,
            "longitude": 132.2828913
        },
        "url": ""
    },
    {
        "name": "和田公民館（旧和田小学校）",
        "info": "",
        "address": "島根県浜田市旭町和田1284",
        "tel": "0855-45-0411",
        "location": {
            "latitude": 34.861953,
            "longitude": 132.2971352
        },
        "url": ""
    },
    {
        "name": "都川公民館（都川高齢者活動促進センター）",
        "info": "旧都川小学校（体育館）に隣接",
        "address": "島根県浜田市旭町都川889",
        "tel": "0855-47-0001",
        "location": {
            "latitude": 34.83591570000001,
            "longitude": 132.3109466
        },
        "url": ""
    },
    {
        "name": "市木公民館（市木生活改善センター）",
        "info": "",
        "address": "島根県浜田市旭町市木2919-2",
        "tel": "0855-47-0851",
        "location": {
            "latitude": 34.8392826,
            "longitude": 132.3643886
        },
        "url": ""
    },
    {
        "name": "安城公民館（弥栄会館）",
        "info": "",
        "address": "島根県浜田市弥栄町長安本郷544-1",
        "tel": "0855-48-2917",
        "location": {
            "latitude": 34.7771848,
            "longitude": 132.1078403
        },
        "url": ""
    },
    {
        "name": "杵束公民館（弥栄老人憩の家・福祉センター）",
        "info": "",
        "address": "島根県浜田市弥栄町木都賀ｲ526-3",
        "tel": "0855-48-2101",
        "location": {
            "latitude": 34.7653144,
            "longitude": 132.0727435
        },
        "url": ""
    },
    {
        "name": "弥栄中学校",
        "info": "H27年夏に体育館は新設予定（旧体育館は取り壊し）。",
        "address": "島根県浜田市弥栄町木都賀ｲ2735",
        "tel": "0855-48-2239",
        "location": {
            "latitude": 34.7626084,
            "longitude": 132.0728698
        },
        "url": ""
    },
    {
        "name": "岡見小学校",
        "info": "",
        "address": "島根県浜田市三隅町岡見4743",
        "tel": "0855-32-0403",
        "location": {
            "latitude": 34.7677521,
            "longitude": 131.9226102
        },
        "url": ""
    },
    {
        "name": "岡見公民館",
        "info": "",
        "address": "島根県浜田市三隅町岡見516",
        "tel": "0855-32-2298",
        "location": {
            "latitude": 34.7701756,
            "longitude": 131.9217206
        },
        "url": ""
    },
    {
        "name": "三隅中央会館",
        "info": "",
        "address": "島根県浜田市三隅町古市場589",
        "tel": "0855-32-0080",
        "location": {
            "latitude": 34.7845093,
            "longitude": 131.9567289
        },
        "url": ""
    },
    {
        "name": "三隅小学校",
        "info": "",
        "address": "島根県浜田市三隅町古市場450",
        "tel": "0855-32-4040",
        "location": {
            "latitude": 34.7830245,
            "longitude": 131.9560043
        },
        "url": ""
    },
    {
        "name": "三隅中学校",
        "info": "",
        "address": "島根県浜田市三隅町古市場1991",
        "tel": "0855-32-0062",
        "location": {
            "latitude": 34.7841741,
            "longitude": 131.9560235
        },
        "url": ""
    },
    {
        "name": "三保公民館",
        "info": "",
        "address": "島根県浜田市三隅町湊浦120",
        "tel": "0855-32-0314",
        "location": {
            "latitude": 34.7893058,
            "longitude": 131.9427205
        },
        "url": ""
    },
    {
        "name": "白砂公民館",
        "info": "",
        "address": "島根県浜田市三隅町折居883",
        "tel": "0855-32-1288",
        "location": {
            "latitude": 34.8047499,
            "longitude": 131.9754332
        },
        "url": ""
    },
    {
        "name": "市役所三隅支所",
        "info": "",
        "address": "島根県浜田市三隅町三隅1434",
        "tel": "0855-32-2801（代）",
        "location": {
            "latitude": 34.7757201,
            "longitude": 131.9643978
        },
        "url": ""
    },
    {
        "name": "三隅公民館",
        "info": "",
        "address": "島根県浜田市三隅町三隅581",
        "tel": "0855-32-0500",
        "location": {
            "latitude": 34.7828143,
            "longitude": 131.9741954
        },
        "url": ""
    },
    {
        "name": "黒沢公民館",
        "info": "",
        "address": "島根県浜田市三隅町下古和1518",
        "tel": "0855-35-1509",
        "location": {
            "latitude": 34.7394134,
            "longitude": 131.9936221
        },
        "url": ""
    },
    {
        "name": "井野公民館",
        "info": "",
        "address": "島根県浜田市三隅町井野ヘ1816-2",
        "tel": "0855-34-0007",
        "location": {
            "latitude": 34.7930929,
            "longitude": 132.0156468
        },
        "url": ""
    }
]